City_ID,City,Lat,Lng,Max Temp,Humidity,Cloudiness,Wind Speed,Country,Date
0,ribeira grande,38.5167,-28.7,19.220000000000027,55,40,5.81,PT,1698580829
1,port-aux-francais,-49.35,70.2167,5.050000000000011,99,100,10.91,TF,1698580831
2,waitangi,-43.9535,-176.5597,10.220000000000027,77,25,2.27,NZ,1698580832
3,ilulissat,69.2167,-51.1,-8.989999999999952,73,75,1.03,GL,1698580833
4,tsiombe,-25.3,45.4833,32.85000000000002,43,0,6.72,MG,1698580834
5,adamstown,-25.066,-130.1015,22.24000000000001,85,96,7.63,PN,1698580835
6,suva,-18.1416,178.4415,24.710000000000036,88,40,2.57,FJ,1698580786
7,namtsy,62.7161,129.6658,-7.089999999999975,89,100,4.05,RU,1698580581
8,thompson,55.7435,-97.8558,-7.909999999999968,93,75,2.57,CA,1698580582
9,nadym,65.5333,72.5167,-9.159999999999968,98,90,2.2,RU,1698580582
10,smithers,54.7804,-127.1743,-8.819999999999993,92,0,0.0,CA,1698580582
11,trakai,54.6333,24.9333,4.53000000000003,70,29,3.21,LT,1698580583
12,bethel,41.3712,-73.414,11.470000000000027,84,100,0.45,US,1698580583
13,blackmans bay,-43.0167,147.3167,12.07000000000005,77,100,0.45,AU,1698580583
14,hithadhoo,-0.6,73.0833,27.110000000000014,78,62,7.54,MV,1698580584
15,lihue,21.9789,-159.3672,24.77000000000004,81,40,5.66,US,1698580584
16,queenstown,-31.8976,26.8753,12.420000000000016,39,22,9.41,ZA,1698580584
17,constantia,44.1833,28.65,24.379999999999995,45,2,2.42,RO,1698580584
18,isafjordur,66.0755,-23.124,0.020000000000038654,80,0,1.03,IS,1698580585
19,pimentel,-6.8367,-79.9342,19.160000000000025,82,0,2.57,PE,1698580559
20,longyearbyen,78.2186,15.6401,-3.089999999999975,86,75,2.06,SJ,1698580585
21,iqaluit,63.7506,-68.5145,-10.149999999999977,66,75,5.66,CA,1698580585
22,bilibino,68.0546,166.4372,-22.95999999999998,98,13,2.05,RU,1698580586
23,aasiaat,68.7098,-52.8699,-9.859999999999957,96,100,2.58,GL,1698580586
24,yellowknife,62.456,-114.3525,-7.060000000000002,90,0,4.12,CA,1698580841
25,nuuk,64.1835,-51.7216,-1.67999999999995,60,100,4.72,GL,1698580587
26,puerto ayora,-0.7393,-90.3518,23.08000000000004,91,37,3.13,EC,1698580587
27,dunedin,-45.8742,170.5036,11.0,87,25,0.89,NZ,1698580587
28,college,64.8569,-147.8028,-5.310000000000002,86,40,0.0,US,1698580587
29,faranah,10.0404,-10.7434,29.730000000000018,60,11,0.54,GN,1698580588
30,miastko,54.0028,16.9826,9.550000000000011,95,100,6.84,PL,1698580588
31,lebu,-37.6167,-73.65,9.480000000000018,80,100,8.83,CL,1698580588
32,villa bruzual,9.3328,-69.1208,25.0,88,89,1.44,VE,1698580589
33,pemangkat,1.1667,108.9667,27.210000000000036,75,98,2.89,ID,1698580589
34,jamestown,42.097,-79.2353,6.400000000000034,99,100,4.63,US,1698580319
35,carmen de apicala,4.1473,-74.7201,22.810000000000002,90,100,0.22,CO,1698580589
36,west island,-12.1568,96.8225,25.99000000000001,83,40,7.72,CC,1698580590
37,green river,41.5286,-109.4662,-7.779999999999973,47,99,6.92,US,1698580590
38,edinburgh of the seven seas,-37.0676,-12.3116,11.160000000000025,66,22,10.49,SH,1698580590
39,funafuti,-8.5243,179.1942,26.0,100,75,4.63,TV,1698580591
40,ad dawadimi,24.5077,44.3924,29.640000000000043,20,31,3.04,SA,1698580591
41,aldinga beach,-35.2793,138.4604,14.900000000000034,72,94,6.5,AU,1698580591
42,grytviken,-54.2811,-36.5092,3.8700000000000045,74,97,2.65,GS,1698580591
43,bredasdorp,-34.5322,20.0403,17.689999999999998,44,37,10.72,ZA,1698580592
44,tiksi,71.6872,128.8694,-12.189999999999998,93,100,2.57,RU,1698580592
45,new norfolk,-42.7826,147.0587,12.720000000000027,86,100,1.27,AU,1698580593
46,sitka,57.0531,-135.33,6.939999999999998,70,100,2.06,US,1698580426
47,nemuro,43.3236,145.575,10.700000000000045,75,83,5.48,JP,1698580593
48,udachny,66.4167,112.4,-14.75,77,100,3.24,RU,1698580594
49,altay,47.8667,88.1167,2.910000000000025,99,100,2.4,CN,1698580594
50,puerto natales,-51.7236,-72.4875,1.25,80,40,1.03,CL,1698580527
51,codrington,-38.2667,141.9667,11.330000000000041,68,100,5.18,AU,1698580595
52,sambava,-14.2667,50.1667,28.08000000000004,65,10,4.74,MG,1698580595
53,hawaiian paradise park,19.5933,-154.9731,21.689999999999998,83,40,2.06,US,1698580595
54,sur,22.5667,59.5289,29.07000000000005,55,78,1.86,OM,1698580595
55,olonkinbyen,70.9221,-8.7187,0.18999999999999773,68,100,0.96,SJ,1698580596
56,lodja,-3.4833,23.4333,32.98000000000002,45,77,0.44,CD,1698580596
57,ancud,-41.8697,-73.8203,5.840000000000032,81,100,7.94,CL,1698580596
58,kodiak,57.79,-152.4072,8.730000000000018,93,100,11.83,US,1698580596
59,tidjikja,18.5564,-11.4271,35.83000000000004,10,0,3.27,MR,1698580597
60,midvagur,62.0511,-7.1939,7.460000000000036,65,75,5.66,FO,1698580597
61,hermanus,-34.4187,19.2345,18.980000000000018,43,2,10.31,ZA,1698580597
62,heihe,50.2441,127.4902,6.360000000000014,46,79,2.39,CN,1698580598
63,port lincoln,-34.7333,135.8667,13.800000000000011,74,100,5.91,AU,1698580598
64,tobol'sk,58.2,68.2667,-4.109999999999957,70,35,3.58,RU,1698580598
65,freetown,8.484,-13.2299,29.840000000000032,70,75,2.06,SL,1698580598
66,touros,-5.1989,-35.4608,28.82000000000005,57,82,7.74,BR,1698580581
67,barcelos,41.5388,-8.6151,19.08000000000004,76,74,6.02,PT,1698580599
68,vorgashor,67.5833,63.95,-16.529999999999973,94,12,2.44,RU,1698580599
69,weno,7.4515,151.8468,27.970000000000027,83,100,5.14,FM,1698580599
70,nazyvayevsk,55.5698,71.3529,-3.2399999999999523,82,76,4.3,RU,1698580600
71,nosy varika,-20.5833,48.5333,27.220000000000027,72,15,6.93,MG,1698580600
72,tukrah,32.5341,20.5791,25.100000000000023,58,29,4.58,LY,1698580601
73,albany,42.6001,-73.9662,8.689999999999998,72,100,2.63,US,1698580507
74,whitehorse,60.7161,-135.0538,-4.5499999999999545,97,100,5.14,CA,1698580601
75,bamboo flat,11.7,92.7167,27.05000000000001,89,40,1.03,IN,1698580601
76,waingapu,-9.6567,120.2641,27.450000000000045,77,35,4.18,ID,1698580602
77,port augusta,-32.5,137.7667,15.020000000000039,69,21,6.92,AU,1698580602
78,mashhad,36.297,59.6062,28.08000000000004,32,0,2.06,IR,1698580275
79,chateaudun,48.0833,1.3333,16.430000000000007,66,87,10.52,FR,1698580602
80,ulsteinvik,62.3432,5.8487,7.400000000000034,56,0,4.92,NO,1698580603
81,enewetak,11.3474,162.3373,28.860000000000014,76,12,7.32,MH,1698580603
82,corn island,12.1694,-83.0418,28.25,71,96,3.82,NI,1698580603
83,ushuaia,-54.8,-68.3,3.8100000000000023,70,75,5.66,AR,1698580604
84,georgetown,5.4112,100.3354,28.30000000000001,100,40,1.03,MY,1698580506
85,wailua homesteads,22.0669,-159.378,24.439999999999998,90,40,5.66,US,1698580604
86,pisco,-13.7,-76.2167,17.79000000000002,94,97,1.54,PE,1698580604
87,garissa,-0.4536,39.6401,34.98000000000002,33,96,4.36,KE,1698580605
88,djambala,-2.5447,14.7533,28.930000000000007,56,24,2.93,CG,1698580605
89,minas,-34.3759,-55.2377,24.0,70,0,4.53,UY,1698580605
90,al khaburah,23.9886,57.0984,29.700000000000045,50,27,4.0,OM,1698580605
91,talnakh,69.4865,88.3972,-20.399999999999977,97,44,0.99,RU,1698580605
92,carutapera,-1.195,-46.02,28.720000000000027,67,54,5.42,BR,1698580606
93,farafangana,-22.8167,47.8333,27.160000000000025,74,22,7.23,MG,1698580606
94,princeville,45.7668,-61.2985,8.28000000000003,69,40,3.6,CA,1698580607
95,constitucion,-35.3333,-72.4167,11.75,86,98,4.78,CL,1698580607
96,behompy,-23.2496,43.8557,31.590000000000032,38,1,5.9,MG,1698580607
97,papatowai,-46.5619,169.4708,6.7900000000000205,93,100,1.4,NZ,1698580607
98,walvis bay,-22.9575,14.5053,18.960000000000036,62,28,4.58,NA,1698580608
99,flying fish cove,-10.4217,105.6791,25.82000000000005,88,75,3.6,CX,1698580608
100,el calafate,-50.3408,-72.2768,1.7700000000000387,59,47,3.51,AR,1698580608
101,margaret river,-33.95,115.0667,11.75,71,8,4.98,AU,1698580608
102,severo-yeniseyskiy,60.3725,93.0408,-9.120000000000005,81,99,7.15,RU,1698580609
103,katsuren-haebaru,26.3369,127.8719,24.010000000000048,70,0,3.6,JP,1698580609
104,tarija,-21.5355,-64.7296,24.629999999999995,29,100,0.63,BO,1698580609
105,salekhard,66.53,66.6019,-12.149999999999977,99,83,0.85,RU,1698580609
106,atafu village,-8.5421,-172.5159,28.370000000000005,76,100,4.91,TK,1698580610
107,petropavlovsk-kamchatsky,53.0452,158.6483,3.0300000000000296,59,0,1.34,RU,1698580610
108,invercargill,-46.4,168.35,7.230000000000018,91,83,0.45,NZ,1698580610
109,mossel bay,-34.1831,22.146,16.960000000000036,54,24,9.7,ZA,1698580610
110,mucumpiz,8.4167,-71.1333,15.629999999999995,87,100,0.31,VE,1698580611
111,tchintabaraden,15.8969,5.7985,35.77000000000004,8,43,1.16,NE,1698580611
112,kapa'a,22.0752,-159.319,25.180000000000007,88,40,5.66,US,1698580611
113,gbarnga,6.9956,-9.4722,32.120000000000005,47,32,1.55,LR,1698580611
114,zabaykal'sk,49.6333,117.3167,-2.019999999999982,23,73,6.7,RU,1698580612
115,kudahuvadhoo,2.6708,72.8944,28.189999999999998,72,99,7.33,MV,1698580612
116,nar'yan-mar,67.6713,53.087,-8.829999999999984,86,100,5.81,RU,1698580612
117,bonthe,7.5264,-12.505,29.060000000000002,68,23,3.39,SL,1698580612
118,kailua-kona,19.6406,-155.9956,25.980000000000018,85,100,1.79,US,1698580359
119,nurota,40.5614,65.6886,24.129999999999995,27,100,3.57,UZ,1698580613
120,stanley,54.868,-1.6985,9.600000000000023,95,75,1.03,GB,1698580613
121,guerrero negro,27.9769,-114.0611,17.340000000000032,84,0,5.78,MX,1698580552
122,zhangjiakou,40.81,114.8794,14.360000000000014,36,49,1.99,CN,1698580614
123,cidreira,-30.1811,-50.2056,24.090000000000032,73,51,4.01,BR,1698580614
124,north vernon,39.0062,-85.6236,11.830000000000041,93,100,2.76,US,1698580385
125,port-vila,-17.7338,168.3219,21.78000000000003,94,20,0.51,VU,1698580614
126,ust-nera,64.5667,143.2,-18.169999999999987,97,30,1.21,RU,1698580615
127,vernon,50.2581,-119.2691,-2.0600000000000023,67,2,2.57,CA,1698580333
128,targovishte,43.2592,26.5892,22.370000000000005,32,2,1.52,BG,1698580615
129,tvoroyri,61.5556,-6.8111,7.610000000000014,69,99,13.38,FO,1698580615
130,lompoc,34.6391,-120.4579,13.29000000000002,74,0,2.06,US,1698580616
131,port mathurin,-19.6833,63.4167,25.08000000000004,73,77,5.55,MU,1698580616
132,jinghong,21.991,100.7341,21.650000000000034,97,84,0.77,CN,1698580616
133,luderitz,-26.6481,15.1594,29.28000000000003,29,0,5.69,NA,1698580616
134,newman,37.3138,-121.0208,10.020000000000039,34,0,1.34,US,1698580617
135,badger,64.8,-147.5333,-5.359999999999957,88,0,0.0,US,1698580617
136,labuan,5.2767,115.2417,30.200000000000045,74,40,1.54,MY,1698580617
137,aljezur,37.3191,-8.8033,20.220000000000027,82,100,7.23,PT,1698580617
138,isangel,-19.55,169.2667,22.200000000000045,83,94,4.43,VU,1698580618
139,st. john's,47.5649,-52.7093,10.660000000000025,81,75,11.32,CA,1698580525
140,chibougamau,49.9168,-74.3659,-4.2099999999999795,68,100,3.6,CA,1698580618
141,olympia,47.0379,-122.9007,2.490000000000009,93,0,0.45,US,1698580555
142,greenville,35.6127,-77.3663,15.970000000000027,98,0,0.0,US,1698580619
143,la passe,45.5549,-0.8967,17.77000000000004,77,100,6.8,FR,1698580619
144,sychevka,55.8252,34.2736,-0.009999999999990905,82,100,4.36,RU,1698580619
145,coronel dorrego,-38.7187,-61.2873,16.02000000000004,15,100,6.64,AR,1698580619
146,beroroha,-21.6667,45.1667,38.200000000000045,16,80,4.26,MG,1698580620
147,midland,31.9974,-102.0779,5.3700000000000045,100,100,10.8,US,1698580620
148,hasaki,35.7333,140.8333,15.220000000000027,61,56,10.87,JP,1698580620
149,utrik,11.2278,169.8474,28.07000000000005,73,99,9.57,MH,1698580620
150,louisville,38.2542,-85.7594,16.53000000000003,95,100,4.63,US,1698580564
151,changyon,38.2508,125.0961,12.840000000000032,90,2,1.54,KP,1698580621
152,klyuchi,52.2667,79.1667,-0.7299999999999613,97,100,4.02,RU,1698580621
153,dom pedrito,-30.9828,-54.6731,22.05000000000001,84,25,3.01,BR,1698580621
154,cartagena del chaira,1.3349,-74.8429,22.30000000000001,98,100,0.69,CO,1698580622
155,klaksvik,62.2266,-6.589,7.510000000000048,69,98,11.87,FO,1698580622
156,tonghae,37.5439,129.1069,13.170000000000016,75,0,3.18,KR,1698580622
157,port alfred,-33.5906,26.891,16.29000000000002,54,66,5.92,ZA,1698580623
158,kaoma,-14.7833,24.8,32.950000000000045,27,50,0.76,ZM,1698580623
159,hilo,19.7297,-155.09,21.810000000000002,82,40,2.06,US,1698580624
160,quelimane,-17.8786,36.8883,31.970000000000027,70,20,6.69,MZ,1698580335
161,susanville,40.4163,-120.653,-0.6599999999999682,58,0,3.09,US,1698580624
162,greymouth,-42.4667,171.2,6.650000000000034,80,80,2.08,NZ,1698580624
163,rauma,61.1272,21.5113,0.020000000000038654,61,11,3.47,FI,1698580625
164,olinda,-8.0089,-34.8553,26.850000000000023,69,75,8.75,BR,1698580625
165,khurda,20.1833,85.6167,27.950000000000045,55,31,1.58,IN,1698580625
166,jaguariaiva,-24.2511,-49.7058,21.27000000000004,97,100,4.03,BR,1698580626
167,isabel segunda,18.1491,-65.4427,27.129999999999995,99,98,5.24,PR,1698580626
168,port saint john's,-31.6229,29.5448,16.74000000000001,57,76,7.38,ZA,1698580626
169,kenai,60.5544,-151.2583,4.520000000000039,85,100,3.6,US,1698580626
170,anadyr,64.75,177.4833,2.2800000000000296,80,75,6.0,RU,1698580627
171,praia da vitoria,38.7333,-27.0667,18.200000000000045,72,20,8.02,PT,1698580627
172,yarmouth,41.7057,-70.2286,14.080000000000041,73,20,6.26,US,1698580605
173,kingston,17.997,-76.7936,26.53000000000003,93,20,2.06,JM,1698580627
174,haiku-pauwela,20.9219,-156.3051,24.470000000000027,74,0,0.89,US,1698580628
175,katabu,-4.9333,122.5167,25.450000000000045,77,99,2.71,ID,1698580628
176,khorixas,-20.3667,14.9667,36.07000000000005,3,1,4.32,NA,1698580628
177,tondano,1.3038,124.9112,24.05000000000001,88,70,0.9,ID,1698580629
178,nagqu,31.5,92.0,-1.009999999999991,51,76,2.15,CN,1698580629
179,taoudenni,22.6783,-3.9836,38.379999999999995,8,3,3.91,ML,1698580629
180,preobrazheniye,42.9019,133.9064,6.720000000000027,58,0,2.16,RU,1698580629
181,kolonia,50.9333,6.95,16.870000000000005,71,75,4.12,DE,1698580630
182,guozhen,34.3659,107.359,18.120000000000005,54,0,1.12,CN,1698580630
183,emerald,-23.5333,148.1667,20.75,51,2,8.75,AU,1698580630
184,keflavik,64.0049,-22.5624,4.240000000000009,70,0,1.54,IS,1698580630
185,tindouf,27.6711,-8.1474,28.25,17,20,7.2,DZ,1698580631
186,santa cruz,-17.8,-63.1667,25.03000000000003,78,75,9.77,BO,1698580469
187,san antonio de pale,-1.4014,5.6325,26.200000000000045,82,31,3.16,GQ,1698580631
188,gornopravdinsk,60.05,69.9,-8.189999999999998,90,75,2.06,RU,1698580632
189,island harbour,50.724,-1.2758,12.740000000000009,92,76,2.24,GB,1698580632
190,port elizabeth,-33.918,25.5701,17.400000000000034,52,40,5.14,ZA,1698580632
191,pyetrykaw,52.1289,28.4921,8.060000000000002,77,91,1.82,BY,1698580632
192,pokhara,28.2333,83.9833,18.640000000000043,85,70,0.79,NP,1698580633
193,porto novo,6.4965,2.6036,30.900000000000034,64,87,0.25,BJ,1698580387
194,takeo,10.9167,104.8333,28.220000000000027,76,98,1.37,KH,1698580633
195,tengrela,10.4869,-6.4097,34.04000000000002,36,5,1.39,CI,1698580634
196,nikologory,56.1413,41.9922,-0.339999999999975,95,100,3.71,RU,1698580634
197,melekeok village,7.4957,134.6367,25.310000000000002,94,75,0.0,PW,1698580634
198,padangsidempuan,1.3667,99.2667,22.610000000000014,98,99,0.7,ID,1698580634
199,palmer,42.1584,-72.3287,11.300000000000011,71,100,2.57,US,1698580576
200,atar,20.5169,-13.0499,37.700000000000045,8,0,3.51,MR,1698580635
201,kamina,-8.7386,24.9906,30.439999999999998,43,68,1.82,CD,1698580635
202,uturoa,-16.7333,-151.4333,26.010000000000048,80,9,6.29,PF,1698580636
203,saipan,15.1355,145.701,28.390000000000043,83,100,4.12,MP,1698580636
204,avarua,-21.2078,-159.775,22.03000000000003,73,90,4.63,CK,1698580527
205,hamilton,39.1834,-84.5333,13.379999999999995,96,100,6.17,US,1698580504
206,holualoa,19.6228,-155.9522,23.910000000000025,86,100,1.79,US,1698580637
207,tromso,69.6496,18.957,-1.9899999999999523,86,20,3.6,NO,1698580637
208,igrim,63.1906,64.4162,-7.909999999999968,80,23,1.83,RU,1698580637
209,beloyarskiy,63.7119,66.6722,-8.889999999999986,81,14,0.45,RU,1698580638
210,chonchi,-42.6128,-73.8092,4.560000000000002,95,100,2.61,CL,1698580638
211,peniche,39.3558,-9.3811,18.090000000000032,92,100,4.5,PT,1698580459
212,poronaysk,49.2167,143.1167,1.3700000000000045,71,24,2.24,RU,1698580638
213,spring creek,40.7266,-115.5859,-9.169999999999959,59,0,1.6,US,1698580639
214,domerat,46.3606,2.5343,16.82000000000005,79,100,2.24,FR,1698580639
215,astorga,-23.2325,-51.6656,23.129999999999995,82,78,4.06,BR,1698580639
216,oamaru,-45.0784,170.9801,6.8799999999999955,89,37,4.32,NZ,1698580640
217,ust'-ordynskiy,52.805,104.7508,-2.0399999999999636,40,70,1.62,RU,1698580640
218,hondo,32.45,130.2,18.090000000000032,57,2,6.07,JP,1698580640
219,kibuye,-2.0597,29.3482,22.32000000000005,72,57,1.44,RW,1698580640
220,fortuna,40.5982,-124.1573,5.510000000000048,87,0,4.63,US,1698580641
221,san ignacio de velasco,-16.3667,-60.95,29.930000000000007,50,57,5.48,BO,1698580641
222,kalmunai,7.4167,81.8167,27.150000000000034,77,50,3.76,LK,1698580641
223,kosan,38.8558,127.4181,10.520000000000039,74,0,1.59,KP,1698580642
224,mili,6.0815,171.735,28.680000000000007,77,27,6.94,MH,1698580642
225,ishigaki,24.3448,124.1572,25.07000000000005,61,75,5.14,JP,1698580642
226,moultonborough,43.7548,-71.3967,8.200000000000045,67,100,0.45,US,1698580642
227,hadibu,12.65,54.0333,27.920000000000016,70,77,5.12,YE,1698580643
228,arraial do cabo,-22.9661,-42.0278,27.920000000000016,74,0,8.75,BR,1698580643
229,dampit,-8.2116,112.7493,24.54000000000002,70,95,1.48,ID,1698580643
230,argo,37.6333,22.7333,23.77000000000004,42,80,1.6,GR,1698580643
231,labrador city,52.9463,-66.9114,-4.0499999999999545,68,75,7.2,CA,1698580644
232,bryne,58.7354,5.6477,8.879999999999995,71,40,5.14,NO,1698580644
233,lodeynoye pole,60.726,33.5531,-1.2899999999999636,76,56,2.27,RU,1698580644
234,kulhudhuffushi,6.6221,73.07,28.400000000000034,73,75,3.55,MV,1698580645
235,wynyard,-41.0,145.7167,10.54000000000002,72,100,1.8,AU,1698580645
236,caibarien,22.5206,-79.4669,23.620000000000005,82,33,6.57,CU,1698580645
237,shirvan,39.9509,48.8994,27.120000000000005,32,1,5.92,AZ,1698580645
238,remire-montjoly,4.9167,-52.2667,30.02000000000004,79,20,2.06,GF,1698580646
239,zhanaozen,43.3,52.8,24.390000000000043,38,64,3.23,KZ,1698580646
240,palu,-0.8917,119.8707,25.24000000000001,91,27,0.84,ID,1698580646
241,yuzhno-kurilsk,44.0306,145.8556,7.990000000000009,76,51,2.42,RU,1698580647
242,laguna,38.421,-121.4238,13.07000000000005,36,0,4.63,US,1698580647
243,pierre,44.3683,-100.351,-6.489999999999952,83,0,5.66,US,1698580647
244,qaqortoq,60.7167,-46.0333,0.4600000000000364,79,98,2.27,GL,1698580647
245,bhisho,-32.8472,27.4422,12.350000000000023,59,88,4.08,ZA,1698580648
246,florida,28.7505,-82.5001,19.439999999999998,90,100,0.0,US,1698580648
247,boa vista,2.8197,-60.6733,28.99000000000001,70,0,5.66,BR,1698580648
248,punta arenas,-53.15,-70.9167,3.0600000000000023,56,0,4.63,CL,1698580644
249,leninskoye,41.7589,69.3864,22.54000000000002,31,100,2.21,KZ,1698580649
250,coquimbo,-29.9533,-71.3436,13.850000000000023,82,75,1.03,CL,1698580649
251,borogontsy,62.6683,131.1683,-6.439999999999998,95,100,3.11,RU,1698580649
252,kaniv,49.7518,31.46,15.020000000000039,57,89,5.0,UA,1698580650
253,northam,51.0333,-4.2167,14.100000000000023,79,26,10.13,GB,1698580650
254,goroka,-6.0834,145.3873,16.53000000000003,96,73,0.87,PG,1698580650
255,driefontein,-27.0177,30.4498,8.140000000000043,89,100,5.2,ZA,1698580651
256,altai,46.3722,96.2583,0.7600000000000477,65,76,4.25,MN,1698580651
257,ekuvukeni,-28.4675,30.1551,8.160000000000025,76,100,3.72,ZA,1698580651
258,hassi messaoud,31.6804,6.0729,31.920000000000016,13,75,5.14,DZ,1698580651
259,caleta de carquin,-11.0925,-77.6267,19.210000000000036,88,100,3.93,PE,1698580652
260,minas de marcona,-15.2119,-75.1103,15.510000000000048,84,91,4.63,PE,1698580652
261,edson,53.5835,-116.4356,-9.919999999999959,85,0,2.06,CA,1698580652
262,hohhot,40.8106,111.6522,11.160000000000025,37,78,2.0,CN,1698580653
263,kayangel,8.0823,134.7173,27.810000000000002,73,60,1.13,PW,1698580653
264,pitimbu,-7.4706,-34.8086,25.33000000000004,61,63,6.75,BR,1698580653
265,happy valley-goose bay,53.3168,-60.3315,1.170000000000016,69,75,9.26,CA,1698580653
266,carloforte,39.145,8.3058,24.03000000000003,70,19,4.98,IT,1698580654
267,la sarre,48.8002,-79.1996,-2.2399999999999523,75,62,1.75,CA,1698580654
268,villa gesell,-37.2639,-56.973,15.57000000000005,96,100,6.64,AR,1698580654
269,kapuskasing,49.4169,-82.4331,-1.9499999999999886,93,75,2.06,CA,1698580652
270,totskoye,52.5248,52.7623,6.610000000000014,85,100,9.57,RU,1698580655
271,sterling,39.0062,-77.4286,19.05000000000001,85,100,2.06,US,1698580456
272,montero,-17.3333,-63.25,25.5,62,98,7.35,BO,1698580655
273,kingscliff,-28.2667,153.5667,16.52000000000004,88,40,3.09,AU,1698580655
274,pakruojis,55.9667,23.8667,3.4399999999999977,65,60,3.94,LT,1698580656
275,danielskuil,-28.1887,23.5395,21.730000000000018,10,0,7.96,ZA,1698580656
276,sunrise manor,36.2111,-115.0731,11.730000000000018,22,0,12.52,US,1698580656
277,las khorey,11.1595,48.1967,27.860000000000014,77,86,4.48,SO,1698580656
278,paracuru,-3.41,-39.0306,28.950000000000045,55,38,6.88,BR,1698580657
279,pizarro,4.9533,-77.366,23.640000000000043,92,100,2.09,CO,1698580657
280,anse la raye,13.9333,-61.0333,26.80000000000001,82,87,6.66,LC,1698580657
281,prince rupert,54.3161,-130.3201,4.830000000000041,91,0,3.09,CA,1698580545
282,tarinkot,32.6268,65.8733,24.140000000000043,21,100,1.85,AF,1698580658
283,tuy hoa,13.0833,109.3,25.99000000000001,89,61,2.26,VN,1698580658
284,tazovsky,67.4667,78.7,-14.279999999999973,92,63,2.77,RU,1698580659
285,klasterec nad ohri,50.3844,13.1713,19.450000000000045,70,94,2.99,CZ,1698580659
286,akureyri,65.6835,-18.0878,-3.0399999999999636,93,40,2.06,IS,1698580659
287,dudinka,69.4058,86.1778,-15.739999999999952,92,24,5.81,RU,1698580659
288,bikenibeu village,1.3673,173.1241,26.980000000000018,83,20,1.03,KI,1698580659
289,nova sintra,14.8667,-24.7167,23.060000000000002,68,100,5.45,CV,1698580660
290,hilton head island,32.2163,-80.7526,18.32000000000005,94,0,0.0,US,1698580654
291,cabo san lucas,22.8909,-109.9124,23.75,77,0,0.45,MX,1698580434
292,pangody,65.85,74.4859,-12.620000000000005,93,25,2.11,RU,1698580661
293,zhangatas,43.5667,69.75,19.180000000000007,42,100,6.36,KZ,1698580661
294,shurugwi,-19.6702,30.0059,31.120000000000005,23,21,6.1,ZW,1698580661
295,valencia,39.3333,-0.8333,22.840000000000032,45,97,5.68,ES,1698580368
296,rongelap,11.1635,166.8941,28.57000000000005,75,87,8.94,MH,1698580662
297,beau vallon,-20.4189,57.6953,28.450000000000045,74,40,5.14,MU,1698580662
298,filipstad,59.7124,14.1683,2.3600000000000136,65,39,2.82,SE,1698580663
299,stephenville,32.2207,-98.2023,7.640000000000043,94,100,7.2,US,1698580663
300,jwaneng,-24.6004,24.7303,32.76000000000005,9,0,2.87,BW,1698580663
301,buenaventura,3.8801,-77.0312,22.879999999999995,95,100,1.33,CO,1698580664
302,vila velha,-20.3297,-40.2925,27.970000000000027,65,75,4.12,BR,1698580664
303,belyy yar,53.6039,91.3903,-4.060000000000002,63,86,3.0,RU,1698580664
304,guanica,17.9716,-66.908,26.640000000000043,68,93,3.49,PR,1698580665
305,kangding,30.0513,101.9603,7.210000000000036,73,75,1.37,CN,1698580665
306,colonia menno,-22.3667,-59.8167,30.75,50,79,6.23,PY,1698580666
307,corralillo,22.9819,-80.5856,25.129999999999995,82,59,6.97,CU,1698580666
308,san patricio,28.017,-97.5169,26.03000000000003,85,2,4.43,US,1698580666
309,vila franca do campo,37.7167,-25.4333,19.930000000000007,99,85,6.55,PT,1698580667
310,afua,-0.1567,-50.3867,30.939999999999998,58,63,4.28,BR,1698580667
311,ghardaia,32.4909,3.6735,26.640000000000043,18,75,0.0,DZ,1698580667
312,lubang,13.8584,120.124,29.189999999999998,74,7,9.79,PH,1698580668
313,kuressaare,58.2481,22.5039,5.57000000000005,81,100,1.54,EE,1698580668
314,bulawayo,-20.15,28.5833,30.710000000000036,22,84,4.88,ZW,1698580668
315,saudarkrokur,65.7461,-19.6394,-0.03999999999996362,76,65,2.88,IS,1698580669
316,saint simon mills,31.1708,-81.4073,19.010000000000048,88,0,1.54,US,1698580669
317,igarka,67.4667,86.5833,-15.370000000000005,96,93,2.13,RU,1698580669
318,roma,43.2128,-75.4557,8.28000000000003,82,100,2.06,US,1698580669
319,gadzhiyevo,69.2551,33.3362,-7.949999999999989,92,92,1.05,RU,1698580670
320,vadso,70.0744,29.7487,-2.909999999999968,80,100,3.09,NO,1698580670
321,soderhamn,61.3037,17.0592,1.6400000000000432,54,9,3.12,SE,1698580670
322,safaga,26.7292,33.9365,28.28000000000003,65,3,3.14,EG,1698580670
323,szamotuly,52.612,16.5779,14.610000000000014,82,100,4.43,PL,1698580670
324,tanout,14.9709,8.8879,35.09000000000003,9,56,3.11,NE,1698580671
325,puerto baquerizo moreno,-0.9,-89.6,22.54000000000002,79,41,6.29,EC,1698580671
326,manta,-0.95,-80.7333,23.57000000000005,86,100,3.36,EC,1698580671
327,pachino,36.7186,15.0907,22.700000000000045,68,95,3.34,IT,1698580672
328,bria,6.5423,21.9863,29.180000000000007,63,98,0.49,CF,1698580672
329,chui,-33.6971,-53.4616,22.82000000000005,79,8,2.82,UY,1698580672
330,alaminos,14.0639,121.2465,27.939999999999998,87,14,1.89,PH,1698580672
331,cole harbour,44.6724,-63.4751,6.650000000000034,70,40,4.12,CA,1698580673
332,jinchang,38.4953,102.1739,12.970000000000027,27,83,1.48,CN,1698580673
333,mhamid,29.82,-5.72,27.870000000000005,25,58,5.76,MA,1698580673
334,singaraja,-8.112,115.0882,27.170000000000016,78,41,1.04,ID,1698580673
335,vilyuchinsk,52.9306,158.4028,3.8500000000000227,78,93,1.5,RU,1698580674
336,flin flon,54.7682,-101.865,-7.089999999999975,86,20,2.57,CA,1698580674
337,novodvinsk,64.4165,40.8122,-4.560000000000002,81,100,0.68,RU,1698580674
338,lazaro cardenas,17.9583,-102.2,24.660000000000025,87,92,2.53,MX,1698580675
339,wilmington island,32.0036,-80.9737,18.32000000000005,92,0,0.0,US,1698580675
340,kargasok,59.0556,80.8572,-10.989999999999952,94,16,1.37,RU,1698580675
341,almora,29.6167,79.6667,14.400000000000034,69,31,1.46,IN,1698580676
342,namibe,-15.1961,12.1522,25.400000000000034,64,91,5.0,AO,1698580676
343,naze,28.3667,129.4833,16.510000000000048,65,2,3.51,JP,1698580676
344,colonia,50.9333,6.95,16.870000000000005,71,75,4.12,DE,1698580630
345,bitola,41.0311,21.3403,21.920000000000016,39,0,0.93,MK,1698580677
346,atasu,48.6814,71.6433,8.950000000000045,93,100,4.18,KZ,1698580677
347,caconda,-13.7333,15.0667,31.450000000000045,24,85,1.06,AO,1698580677
348,sawakin,19.1059,37.3321,31.510000000000048,62,34,7.38,SD,1698580677
349,kavieng,-2.5744,150.7967,27.57000000000005,81,12,5.37,PG,1698580678
350,bhilwara,25.35,74.6333,29.129999999999995,24,0,1.55,IN,1698580678
351,carnarvon,-24.8667,113.6333,20.700000000000045,68,0,10.85,AU,1698580678
352,noosa heads,-26.3833,153.15,16.730000000000018,68,0,3.83,AU,1698580679
353,el granada,37.5027,-122.4694,15.990000000000009,34,0,4.12,US,1698580679
354,puerto santa,-8.9906,-78.6456,18.360000000000014,92,97,4.07,PE,1698580679
355,priargunsk,50.3691,119.1012,-1.3899999999999864,22,90,3.81,RU,1698580679
356,luang prabang,19.8856,102.1347,27.980000000000018,74,75,1.03,LA,1698580680
357,banda aceh,5.5577,95.3222,27.04000000000002,80,78,2.47,ID,1698580680
358,weiser,44.251,-116.9693,-0.37999999999999545,71,0,1.75,US,1698580680
359,gisborne,-38.6533,178.0042,13.0,67,100,6.48,NZ,1698580680
360,ta`u,-14.2336,-169.5144,27.05000000000001,80,14,5.86,AS,1698580681
361,burang,30.25,81.1667,1.2200000000000273,72,90,1.06,CN,1698580681
362,bondo,3.8146,23.6866,34.19,38,74,1.49,CD,1698580681
363,tinogasta,-28.0632,-67.5649,26.200000000000045,8,0,3.55,AR,1698580682
364,al muwayh,22.4333,41.7583,25.629999999999995,48,92,6.24,SA,1698580682
365,marshfield,44.6689,-90.1718,-0.5099999999999909,86,75,3.09,US,1698580386
366,juhaynah,26.6732,31.4976,34.18000000000001,25,0,4.43,EG,1698580682
367,bongor,10.2806,15.3722,38.04000000000002,24,41,2.17,TD,1698580683
368,kone,-21.0595,164.8658,19.410000000000025,75,37,2.09,NC,1698580683
369,bejaia,36.7559,5.0843,22.600000000000023,73,40,3.09,DZ,1698580683
370,ilebo,-4.3167,20.5833,34.0,45,39,1.24,CD,1698580683
371,saint-joseph,-21.3667,55.6167,28.210000000000036,83,39,4.61,RE,1698580684
372,shahrud,36.4182,54.9763,22.54000000000002,20,94,1.05,IR,1698580684
373,kismayo,-0.3582,42.5454,29.150000000000034,66,74,5.58,SO,1698580684
374,anzio,41.4853,12.6179,24.27000000000004,62,18,7.16,IT,1698580685
375,niafunke,15.9322,-3.9906,37.420000000000016,9,0,1.21,ML,1698580685
376,santa cruz del norte,23.1539,-81.9236,25.78000000000003,78,9,7.08,CU,1698580685
377,ulanhot,46.0833,122.0833,9.830000000000041,42,94,4.79,CN,1698580685
378,talcahuano,-36.7167,-73.1167,10.82000000000005,76,75,2.06,CL,1698580686
379,iskateley,67.6803,53.1512,-8.879999999999995,86,100,5.81,RU,1698580686
380,pico truncado,-46.7949,-67.9573,5.960000000000036,58,28,4.52,AR,1698580686
381,songling,31.1933,120.7176,19.129999999999995,67,7,3.26,CN,1698580686
382,darovskoy,58.77,47.9564,-0.6899999999999977,89,100,3.12,RU,1698580687
383,sarykemer,43.0,71.5,21.710000000000036,32,100,1.53,KZ,1698580687
384,mount gambier,-37.8333,140.7667,10.060000000000002,88,100,3.34,AU,1698580544
385,kyabe,9.4515,18.9449,34.81,37,80,2.55,TD,1698580687
386,tolanaro,-25.0319,46.9987,29.04000000000002,70,40,8.23,MG,1698580688
387,masterton,-40.9597,175.6575,7.1299999999999955,90,100,1.53,NZ,1698580688
388,surskoye,54.4821,46.7214,0.18000000000000682,97,100,5.7,RU,1698580688
389,xapuri,-10.6517,-68.5044,25.670000000000016,77,99,2.36,BR,1698580689
390,kamaishi,39.2667,141.8833,13.629999999999995,82,100,6.35,JP,1698580689
391,barreirinha,-2.7933,-57.07,32.77000000000004,42,62,2.75,BR,1698580689
392,yankton,42.8711,-97.3973,-3.819999999999993,86,75,3.09,US,1698580690
393,gamba,-2.65,10.0,28.400000000000034,76,26,4.28,GA,1698580690
394,mpongwe,-13.5091,28.155,32.78000000000003,28,74,2.6,ZM,1698580690
395,lodwar,3.1191,35.5973,28.760000000000048,54,93,7.34,KE,1698580691
396,deir ez-zor,35.3359,40.1408,31.890000000000043,21,70,0.53,SY,1698580691
397,koungheul,13.9833,-14.8,33.57000000000005,45,6,3.39,SN,1698580691
398,miramichi,47.0043,-65.4654,2.75,62,90,4.26,CA,1698580692
399,nogliki,51.8333,143.1667,-0.03999999999996362,78,15,4.02,RU,1698580692
400,koungou,-12.7336,45.2042,31.840000000000032,62,40,4.63,YT,1698580692
401,inda silase,14.1031,38.2829,23.53000000000003,48,82,1.56,ET,1698580692
402,kharan,28.5833,65.4167,30.420000000000016,18,4,1.67,PK,1698580693
403,potosi,-19.5836,-65.7531,6.760000000000048,13,43,2.87,BO,1698580693
404,zalingei,12.9096,23.4741,33.99000000000001,18,12,0.56,SD,1698580693
405,fale old settlement,-9.3852,-171.2468,28.610000000000014,74,95,4.36,TK,1698580693
406,kwaksan,39.6875,125.0828,13.010000000000048,84,1,1.47,KP,1698580694
407,xiongzhou,25.1167,114.3,21.610000000000014,83,100,1.38,CN,1698580694
408,langfang,39.5097,116.6947,18.060000000000002,56,1,1.48,CN,1698580694
409,usogorsk,63.4106,48.6872,-3.519999999999982,83,100,3.64,RU,1698580694
410,kruisfontein,-34.0033,24.7314,16.28000000000003,41,38,6.63,ZA,1698580695
411,kandalaksha,67.162,32.4123,-6.71999999999997,84,97,1.34,RU,1698580695
412,nizhnesortymskiy,62.4397,71.7603,-10.379999999999995,95,46,1.04,RU,1698580677
413,sihanoukville,10.6093,103.5296,24.970000000000027,94,75,0.0,KH,1698580696
414,kongsberg,59.6652,9.6465,0.660000000000025,63,32,2.45,NO,1698580696
415,oton,10.6931,122.4736,26.010000000000048,85,71,4.32,PH,1698580696
416,taksimo,56.3444,114.8794,-9.159999999999968,63,81,0.76,RU,1698580696
417,bereznik,62.8551,42.7072,-2.17999999999995,92,100,0.83,RU,1698580697
418,chilca,-12.5211,-76.7372,18.939999999999998,87,93,1.15,PE,1698580697
419,as sulayyil,20.4607,45.5779,31.140000000000043,24,78,3.79,SA,1698580697
420,gbely,48.718,17.1163,16.680000000000007,75,67,7.85,SK,1698580698
421,pembroke,45.8168,-77.1162,1.2100000000000364,70,100,1.39,CA,1698580698
422,duong dong,10.2167,103.9667,26.0,89,40,1.03,VN,1698580698
423,gaspe,48.8334,-64.4819,3.1200000000000045,65,75,5.66,CA,1698580698
424,vilyuysk,63.7553,121.6247,-10.560000000000002,94,23,2.24,RU,1698580699
425,ashburton,-37.8626,145.0794,14.450000000000045,72,92,1.67,AU,1698580699
426,polyarnyy,69.1989,33.4478,-7.439999999999998,91,91,0.93,RU,1698580699
427,mbulu,-3.85,35.5333,26.970000000000027,31,64,5.66,TZ,1698580699
428,mirpur sakro,24.5474,67.6277,31.129999999999995,37,1,5.79,PK,1698580700
429,dzerzhinskoye,56.8344,95.2283,-5.139999999999986,64,69,0.95,RU,1698580700
430,nuku'alofa,-21.1333,-175.2,23.189999999999998,94,20,3.6,TO,1698580700
431,wang noi,14.2269,100.7155,30.57000000000005,85,92,0.89,TH,1698580700
432,guarapari,-20.6667,-40.4975,25.57000000000005,77,100,6.09,BR,1698580701
433,mahina,-17.5065,-149.489,23.870000000000005,88,20,1.03,PF,1698580701
434,acajutla,13.5928,-89.8275,25.379999999999995,85,99,3.98,SV,1698580701
435,lev tolstoy,53.2134,39.446,2.07000000000005,94,100,6.3,RU,1698580702
436,newquay,50.4132,-5.0819,14.170000000000016,87,40,9.26,GB,1698580473
437,arkhangel'sk,64.5401,40.5433,-4.3700000000000045,81,100,0.68,RU,1698580702
438,sumbe,-11.2061,13.8437,28.04000000000002,72,29,4.83,AO,1698580702
439,qalat,32.1058,66.9083,22.32000000000005,23,64,4.69,AF,1698580703
440,yangcun,39.3639,117.0603,16.99000000000001,52,0,1.75,CN,1698580703
441,ust'-ilimsk,58.0006,102.6619,-3.6399999999999864,56,100,5.36,RU,1698580703
442,quartu sant'elena,39.2419,9.1839,27.120000000000005,72,20,6.17,IT,1698580704
443,ciutadella,40.0011,3.8414,22.450000000000045,62,11,7.67,ES,1698580704
444,luwuk,-0.9516,122.7875,25.510000000000048,80,54,1.43,ID,1698580704
445,aripuana,-9.1667,-60.6333,32.710000000000036,38,66,0.37,BR,1698580704
446,sal rei,16.1833,-22.9167,27.110000000000014,57,75,5.14,CV,1698580705
447,tual,-5.6667,132.75,27.74000000000001,80,65,6.92,ID,1698580705
448,malanje,-9.5402,16.341,31.180000000000007,39,44,1.95,AO,1698580705
449,copiapo,-27.3667,-70.3333,14.379999999999995,81,41,1.3,CL,1698580425
450,dalaman,36.7659,28.8028,25.920000000000016,65,75,4.12,TR,1698580706
451,onguday,50.75,86.15,-1.419999999999959,96,100,1.24,RU,1698580706
452,abepura,-2.6333,140.5833,26.450000000000045,74,20,1.03,ID,1698580706
453,ghormach,35.7306,63.7826,28.05000000000001,18,4,0.89,AF,1698580707
454,sinabang,2.4803,96.3801,26.010000000000048,83,99,1.48,ID,1698580707
455,uttarkashi,30.7333,78.45,17.480000000000018,63,25,0.66,IN,1698580707
456,grahamstown,-33.3042,26.5328,14.0,49,53,7.14,ZA,1698580707
457,darwin,-12.4611,130.8418,29.99000000000001,68,0,5.14,AU,1698580678
458,susuman,62.7833,148.1667,-17.789999999999964,99,81,0.45,RU,1698580708
459,kualakapuas,-3.0091,114.3876,29.57000000000005,59,83,1.81,ID,1698580709
460,jayapura,-2.5333,140.7,26.660000000000025,87,51,3.7,ID,1698580709
461,zhaoyuan,37.3592,120.3964,16.29000000000002,59,19,4.05,CN,1698580709
462,daru,-9.0763,143.2092,25.29000000000002,88,100,7.77,PG,1698580709
463,el oued,33.3561,6.8632,26.83000000000004,26,40,5.66,DZ,1698580710
464,cunit,41.1983,1.6365,24.83000000000004,73,62,3.13,ES,1698580710
465,gobabis,-22.45,18.9667,31.100000000000023,11,3,2.76,NA,1698580663
466,srednyaya yelyuzan',53.0241,45.9529,1.4600000000000364,95,100,8.5,RU,1698580710
467,umba,66.6871,34.3429,-3.599999999999966,72,79,3.35,RU,1698580711
468,orikhiv,47.5673,35.7858,17.99000000000001,41,2,5.96,UA,1698580711
469,tchibanga,-2.85,11.0333,30.950000000000045,65,56,0.16,GA,1698580711
470,yeppoon,-23.1333,150.7333,19.879999999999995,65,14,4.9,AU,1698580712
471,san jose del cabo,23.0589,-109.6977,23.74000000000001,87,0,1.54,MX,1698580434
472,lan krabue,16.6,99.8489,25.379999999999995,84,97,0.22,TH,1698580712
473,eduardo castex,-35.915,-64.2945,15.770000000000039,42,39,6.75,AR,1698580712
474,sisimiut,66.9395,-53.6735,-5.060000000000002,68,100,5.05,GL,1698580713
475,tura,25.5198,90.2201,20.680000000000007,92,16,1.24,IN,1698580713
476,lusambo,-4.9667,23.45,33.75,41,52,0.74,CD,1698580713
477,hotan,37.0997,79.9269,17.58000000000004,16,100,1.89,CN,1698580713
478,nizhniy odes,63.6445,54.856,-6.329999999999984,79,100,5.18,RU,1698580714
479,khovd,48.0056,91.6419,-0.14999999999997726,58,100,1.03,MN,1698580683
480,brigantine,39.4101,-74.3646,17.79000000000002,81,0,4.12,US,1698580714
481,pangai,-19.8,-174.35,24.200000000000045,86,22,8.34,TO,1698580715
482,sake,-1.5736,29.045,22.310000000000002,81,73,0.65,CD,1698580715
483,karratha,-20.7377,116.8463,27.720000000000027,73,100,5.63,AU,1698580715
484,pachperwa,27.5167,82.65,24.439999999999998,46,7,2.21,IN,1698580715
485,san mariano,7.5,126.0,23.060000000000002,95,19,1.45,PH,1698580716
486,moree,-29.4667,149.85,20.5,29,94,3.5,AU,1698580716
487,vieste,41.8825,16.175,20.99000000000001,64,0,3.54,IT,1698580716
488,galliano,29.4422,-90.2992,25.0,73,100,1.54,US,1698580716
489,orkney,-26.9802,26.6727,22.600000000000023,41,16,9.38,ZA,1698580717
490,cranbrook,49.4999,-115.7688,-12.089999999999975,85,0,2.06,CA,1698580717
491,oranjemund,-28.55,16.4333,28.52000000000004,19,0,7.76,NA,1698580717
492,saint-francois,46.4154,3.9054,20.689999999999998,56,0,7.2,FR,1698580717
493,ocean shores,46.9737,-124.1563,5.010000000000048,84,0,3.6,US,1698580718
494,suoyarvi,62.0833,32.35,-3.25,73,46,2.34,RU,1698580718
495,dryden,49.7833,-92.7503,-4.839999999999975,93,100,2.06,CA,1698580464
496,raja,8.4596,25.678,33.29000000000002,38,96,2.92,SS,1698580719
497,beyneu,45.3167,55.2,21.310000000000002,49,82,6.79,KZ,1698580719
498,afaahiti,-17.75,-149.2833,22.930000000000007,83,27,5.96,PF,1698580719
499,saurimo,-9.6608,20.3916,32.69,35,27,2.33,AO,1698580719
500,motygino,58.1831,94.7592,-4.009999999999991,57,81,4.02,RU,1698580720
501,lorengau,-2.0226,147.2712,26.900000000000034,83,55,2.5,PG,1698580720
502,obidos,-1.9175,-55.5181,31.75,46,84,2.72,BR,1698580720
503,west bay,19.3667,-81.4167,26.670000000000016,83,20,1.54,KY,1698580721
504,kerikeri,-35.2268,173.9474,13.840000000000032,95,100,3.13,NZ,1698580721
505,shimoga,13.9167,75.5667,26.870000000000005,65,84,1.65,IN,1698580670
506,paradip garh,20.3167,86.6167,25.83000000000004,66,41,3.87,IN,1698580721
507,kisaran,2.9845,99.6158,24.52000000000004,95,95,0.62,ID,1698580686
508,kalevala,65.2,31.1667,-5.509999999999991,93,92,1.34,RU,1698580722
509,crane,31.3974,-102.3501,12.350000000000023,94,50,10.73,US,1698580722
510,akrehamn,59.2667,5.1833,9.120000000000005,53,75,7.2,NO,1698580722
511,bengkulu,-3.8004,102.2655,24.370000000000005,90,11,2.59,ID,1698580723
512,tofol,5.3248,163.0078,27.150000000000034,81,100,4.08,FM,1698580723
513,nova vicosa,-17.8919,-39.3719,27.629999999999995,63,93,5.39,BR,1698580723
514,kabarnet,0.4919,35.743,24.060000000000002,39,66,3.9,KE,1698580724
515,hun,29.1268,15.9477,30.52000000000004,16,2,2.46,LY,1698580724
516,chakari,-18.0629,29.8925,36.460000000000036,12,3,2.59,ZW,1698580724
517,levelland,33.5873,-102.378,-0.44999999999998863,82,100,7.37,US,1698580724
518,mandalgovi,45.7625,106.2708,1.0200000000000387,53,48,1.58,MN,1698580725
519,cockburn town,21.4612,-71.1419,27.99000000000001,79,22,6.81,TC,1698580725
520,joao neiva,-19.7575,-40.3856,27.170000000000016,63,97,4.05,BR,1698580725
521,ivdel',60.6911,60.4206,-3.7799999999999727,65,100,4.02,RU,1698580596
522,kaa-khem,51.6833,94.7333,-3.659999999999968,33,100,1.4,RU,1698580726
523,nizao,18.25,-70.2,28.04000000000002,82,87,2.16,DO,1698580726
524,choibalsan,48.0667,114.5,-2.6899999999999977,22,71,2.65,MN,1698580726
525,la paz,-16.5,-68.15,9.760000000000048,25,40,0.0,BO,1698580727
526,piripiri,-4.2733,-41.7769,32.68000000000001,34,5,4.2,BR,1698580727
527,the pas,53.8251,-101.2541,-5.989999999999952,86,100,4.63,CA,1698580727
528,dhidhdhoo,6.8833,73.1,28.390000000000043,73,86,3.37,MV,1698580728
529,washington,47.5001,-120.5015,0.9200000000000159,84,11,0.76,US,1698580554
530,galle,6.0367,80.217,26.620000000000005,82,62,3.79,LK,1698580728
531,beira,-19.8436,34.8389,29.05000000000001,61,75,8.75,MZ,1698580728
532,kundla,21.3333,71.3,32.31,22,20,3.94,IN,1698580729
533,al jaradiyah,16.5795,42.9124,25.720000000000027,67,100,2.34,SA,1698580729
534,karonga,-9.9333,33.9333,31.25,46,13,4.61,MW,1698580729
535,anloga,5.7947,0.8973,30.110000000000014,60,45,1.72,GH,1698580730
536,oliva de la frontera,38.276,-6.9187,19.200000000000045,68,98,6.97,ES,1698580730
537,talara,-4.5772,-81.2719,20.75,80,100,6.3,PE,1698580730
538,ajaccio,42.0,8.9167,21.99000000000001,50,0,2.06,FR,1698580731
539,baise city,23.8997,106.6133,24.08000000000004,99,97,0.25,CN,1698580731
540,medicine hat,50.0501,-110.6683,-4.759999999999991,86,100,3.6,CA,1698580731
541,brattleboro,42.8509,-72.5579,9.810000000000002,75,100,1.79,US,1698580732
542,sunland park,31.7965,-106.58,17.230000000000018,38,0,2.57,US,1698580732
543,ormara,25.2088,64.6357,27.560000000000002,68,0,6.37,PK,1698580732
544,chunskiy,56.0815,99.6342,-2.9599999999999795,50,70,0.95,RU,1698580733
545,niederaula,50.8,9.6,13.720000000000027,78,100,5.09,DE,1698580733
546,ende,-8.8432,121.6623,26.58000000000004,82,34,1.32,ID,1698580733
547,konakovo,56.7,36.7667,-0.48999999999995225,90,100,4.07,RU,1698580734
548,buncrana,55.1333,-7.45,11.53000000000003,79,93,5.82,IE,1698580734
549,yanam,16.7333,82.2167,26.910000000000025,70,58,2.58,IN,1698580734
550,nema,57.5067,50.5011,-0.5299999999999727,95,100,4.93,RU,1698580734
551,tarawa,1.419,172.984,27.05000000000001,83,20,1.03,KI,1698580735
552,abeche,13.8292,20.8324,38.01000000000005,17,0,0.0,TD,1698580735
553,arar,30.9753,41.0381,30.010000000000048,17,0,0.0,SA,1698580735
554,hermansverk,61.1846,6.8502,0.25,74,4,1.54,NO,1698580735
555,jamui,24.9167,86.2167,25.210000000000036,54,1,1.41,IN,1698580736
556,svetlyy,54.675,20.1347,4.090000000000032,78,96,7.08,RU,1698580736
557,egilsstadir,65.2653,-14.3948,-0.049999999999954525,100,40,1.03,IS,1698580736
558,ha'il,27.5219,41.6907,23.010000000000048,60,75,3.09,SA,1698580736
559,cold lake,54.4502,-110.2017,-4.029999999999973,93,100,3.6,CA,1698580737
560,nchelenge,-9.3451,28.734,27.870000000000005,53,100,1.96,ZM,1698580737
561,lata,40.1629,-8.3327,15.600000000000023,98,100,2.13,PT,1698580737
562,malegaon,20.55,74.5333,30.120000000000005,25,16,4.66,IN,1698580738
563,gretna,29.9147,-90.054,23.0,88,100,2.57,US,1698580738
564,swift current,50.2834,-107.8014,-6.5499999999999545,93,100,5.14,CA,1698580738
565,at taraf,25.3628,49.725,33.30000000000001,29,31,2.62,SA,1698580738
566,homer,59.6425,-151.5483,5.939999999999998,81,100,0.0,US,1698580739
567,rio gallegos,-51.6226,-69.2181,2.0300000000000296,64,75,8.23,AR,1698580739
568,souk ahras,36.2864,7.9511,28.420000000000016,20,75,8.26,DZ,1698580739
569,namsos,64.4662,11.4957,2.0300000000000296,93,75,3.6,NO,1698580553
